[
    {
        "id": "barrel-dog-brewing-evergreen",
        "name": "Barrel Dog Brewing",
        "brewery_type": "micro",
        "street": null,
        "address_2": null,
        "address_3": null,
        "city": "Evergreen",
        "state": "Colorado",
        "county_province": null,
        "postal_code": "80439",
        "country": "United States",
        "longitude": "-105.321458",
        "latitude": "39.6361637",
        "phone": "5599176846",
        "website_url": null,
        "updated_at": "2021-10-23T02:24:55.243Z",
        "created_at": "2021-10-23T02:24:55.243Z"
    },
    {
        "id": "boss-dog-brewing-cleveland",
        "name": "Boss Dog Brewing",
        "brewery_type": "brewpub",
        "street": "2179 Lee Rd",
        "address_2": null,
        "address_3": null,
        "city": "Cleveland",
        "state": "Ohio",
        "county_province": null,
        "postal_code": "44118-2907",
        "country": "United States",
        "longitude": "-81.56529555",
        "latitude": "41.50030645",
        "phone": "2163212337",
        "website_url": "http://www.bossdogbrewing.com",
        "updated_at": "2021-10-23T02:24:55.243Z",
        "created_at": "2021-10-23T02:24:55.243Z"
    },
    {
        "id": "diving-dog-brewhouse-oakland",
        "name": "Diving Dog Brewhouse",
        "brewery_type": "micro",
        "street": "1802 Telegraph Ave",
        "address_2": null,
        "address_3": null,
        "city": "Oakland",
        "state": "California",
        "county_province": null,
        "postal_code": "94612-2110",
        "country": "United States",
        "longitude": "-122.2698881",
        "latitude": "37.807739",
        "phone": "5103061914",
        "website_url": "http://www.divingdogbrew.com",
        "updated_at": "2021-10-23T02:24:55.243Z",
        "created_at": "2021-10-23T02:24:55.243Z"
    },
    {
        "id": "dog-days-brewing-bremerton",
        "name": "Dog Days Brewing",
        "brewery_type": "brewpub",
        "street": "260 4th St",
        "address_2": null,
        "address_3": null,
        "city": "Bremerton",
        "state": "Washington",
        "county_province": null,
        "postal_code": "98337-1813",
        "country": "United States",
        "longitude": "-122.6259002",
        "latitude": "47.5658843",
        "phone": "3606279925",
        "website_url": "https://www.dogdaysbrewing.com",
        "updated_at": "2021-10-23T02:24:55.243Z",
        "created_at": "2021-10-23T02:24:55.243Z"
    },
    {
        "id": "dog-money-restaurant-leesburg",
        "name": "Dog Money Restaurant",
        "brewery_type": "brewpub",
        "street": "50 Catoctin Cir NE STE 100",
        "address_2": null,
        "address_3": null,
        "city": "Leesburg",
        "state": "Virginia",
        "county_province": null,
        "postal_code": "20176-3102",
        "country": "United States",
        "longitude": null,
        "latitude": null,
        "phone": "7035775452",
        "website_url": "http://dogmoneyllc.com",
        "updated_at": "2021-10-23T02:24:55.243Z",
        "created_at": "2021-10-23T02:24:55.243Z"
    },
    {
        "id": "dog-tag-brewing-bozeman",
        "name": "Dog Tag Brewing",
        "brewery_type": "contract",
        "street": "2042 Stadium Dr Ste 2",
        "address_2": null,
        "address_3": null,
        "city": "Bozeman",
        "state": "Montana",
        "county_province": null,
        "postal_code": "59715-0710",
        "country": "United States",
        "longitude": null,
        "latitude": null,
        "phone": null,
        "website_url": "http://www.dogtagbrewing.org",
        "updated_at": "2021-10-23T02:24:55.243Z",
        "created_at": "2021-10-23T02:24:55.243Z"
    },
    {
        "id": "dreaming-dog-brewery-elk-grove",
        "name": "Dreaming Dog Brewery",
        "brewery_type": "micro",
        "street": "2501 W Taron Ct",
        "address_2": null,
        "address_3": null,
        "city": "Elk Grove",
        "state": "California",
        "county_province": null,
        "postal_code": "95757-8423",
        "country": "United States",
        "longitude": null,
        "latitude": null,
        "phone": null,
        "website_url": null,
        "updated_at": "2021-10-23T02:24:55.243Z",
        "created_at": "2021-10-23T02:24:55.243Z"
    },
    {
        "id": "flying-dog-brewery-frederick",
        "name": "Flying Dog Brewery",
        "brewery_type": "regional",
        "street": "4607 Wedgewood Blvd",
        "address_2": null,
        "address_3": null,
        "city": "Frederick",
        "state": "Maryland",
        "county_province": null,
        "postal_code": "21703-7120",
        "country": "United States",
        "longitude": "-77.42679107",
        "latitude": "39.3628322",
        "phone": "3016947899",
        "website_url": "http://www.flyingdogbrewery.com",
        "updated_at": "2021-10-23T02:24:55.243Z",
        "created_at": "2021-10-23T02:24:55.243Z"
    },
    {
        "id": "island-dog-brewing-south-portland",
        "name": "Island Dog Brewing",
        "brewery_type": "micro",
        "street": "125 John Roberts Rd",
        "address_2": null,
        "address_3": null,
        "city": "South Portland",
        "state": "Maine",
        "county_province": null,
        "postal_code": "04106-3295",
        "country": "United States",
        "longitude": "-70.33101442",
        "latitude": "43.63059386",
        "phone": "2073300283",
        "website_url": "http://www.islanddogbrewing.com",
        "updated_at": "2021-10-23T02:24:55.243Z",
        "created_at": "2021-10-23T02:24:55.243Z"
    },
    {
        "id": "laughing-dog-brewing-ponderay",
        "name": "Laughing Dog Brewing",
        "brewery_type": "micro",
        "street": "805 Schweitzer Plaza Dr",
        "address_2": null,
        "address_3": null,
        "city": "Ponderay",
        "state": "Idaho",
        "county_province": null,
        "postal_code": "83852-9823",
        "country": "United States",
        "longitude": "-116.5464216",
        "latitude": "48.3050088",
        "phone": "2082639222",
        "website_url": "http://www.laughingdogbrewing.com",
        "updated_at": "2021-10-23T02:24:55.243Z",
        "created_at": "2021-10-23T02:24:55.243Z"
    },
    {
        "id": "lead-dog-brewing-reno",
        "name": "Lead Dog Brewing",
        "brewery_type": "micro",
        "street": "415 E 4th St",
        "address_2": null,
        "address_3": null,
        "city": "Reno",
        "state": "Nevada",
        "county_province": null,
        "postal_code": "89512-3315",
        "country": "United States",
        "longitude": "-119.8084451",
        "latitude": "39.5316052",
        "phone": "7753915110",
        "website_url": "http://www.leaddogbrewing.com",
        "updated_at": "2021-10-23T02:24:55.243Z",
        "created_at": "2021-10-23T02:24:55.243Z"
    },
    {
        "id": "running-dogs-brewery-saint-helens",
        "name": "Running Dogs Brewery",
        "brewery_type": "proprietor",
        "street": "291 S 1st St, St.",
        "address_2": null,
        "address_3": null,
        "city": "Saint Helens",
        "state": "Oregon",
        "county_province": null,
        "postal_code": "97051",
        "country": "United States",
        "longitude": null,
        "latitude": null,
        "phone": "5033971103",
        "website_url": "http://www.runningdogsbrewery.com",
        "updated_at": "2021-10-23T02:24:55.243Z",
        "created_at": "2021-10-23T02:24:55.243Z"
    },
    {
        "id": "sea-dog-brewing-camden",
        "name": "Sea Dog Brewing",
        "brewery_type": "micro",
        "street": "1 Main St",
        "address_2": null,
        "address_3": null,
        "city": "Camden",
        "state": "Maine",
        "county_province": null,
        "postal_code": "04843-1703",
        "country": "United States",
        "longitude": "-69.064576",
        "latitude": "44.209809",
        "phone": null,
        "website_url": "http://www.seadogbrewing.com",
        "updated_at": "2021-10-23T02:24:55.243Z",
        "created_at": "2021-10-23T02:24:55.243Z"
    },
    {
        "id": "spotted-dog-brewery-las-cruces",
        "name": "Spotted Dog Brewery",
        "brewery_type": "brewpub",
        "street": "2920 Avenida De Mesilla",
        "address_2": null,
        "address_3": null,
        "city": "Las Cruces",
        "state": "New Mexico",
        "county_province": null,
        "postal_code": "88005",
        "country": "United States",
        "longitude": "-106.7852399",
        "latitude": "32.2938747",
        "phone": "5756502729",
        "website_url": "http://www.spotteddogbrewery.com",
        "updated_at": "2021-10-23T02:24:55.243Z",
        "created_at": "2021-10-23T02:24:55.243Z"
    },
    {
        "id": "tin-dog-brewing-seattle",
        "name": "Tin Dog Brewing",
        "brewery_type": "micro",
        "street": "309 S Cloverdale St Ste A2",
        "address_2": null,
        "address_3": null,
        "city": "Seattle",
        "state": "Washington",
        "county_province": null,
        "postal_code": "98108-4500",
        "country": "United States",
        "longitude": null,
        "latitude": null,
        "phone": "2064384257",
        "website_url": "http://www.tindogbrewing.com",
        "updated_at": "2021-10-23T02:24:55.243Z",
        "created_at": "2021-10-23T02:24:55.243Z"
    },
    {
        "id": "alpine-dog-brewing-co-denver",
        "name": "Alpine Dog Brewing Co",
        "brewery_type": "micro",
        "street": "1505 N Ogden St",
        "address_2": null,
        "address_3": null,
        "city": "Denver",
        "state": "Colorado",
        "county_province": null,
        "postal_code": "80218-1405",
        "country": "United States",
        "longitude": null,
        "latitude": null,
        "phone": "3038321245",
        "website_url": "http://www.alpinedogbrewery.com",
        "updated_at": "2021-10-23T02:24:55.243Z",
        "created_at": "2021-10-23T02:24:55.243Z"
    },
    {
        "id": "big-dogs-brewing-co-las-vegas",
        "name": "Big Dog's Brewing Co",
        "brewery_type": "brewpub",
        "street": "4547 N Rancho Dr Ste A",
        "address_2": null,
        "address_3": null,
        "city": "Las Vegas",
        "state": "Nevada",
        "county_province": null,
        "postal_code": "89130-3432",
        "country": "United States",
        "longitude": null,
        "latitude": null,
        "phone": "7023683715",
        "website_url": "http://www.bigdogsbrews.com",
        "updated_at": "2021-10-23T02:24:55.243Z",
        "created_at": "2021-10-23T02:24:55.243Z"
    },
    {
        "id": "bike-dog-brewing-co-west-sacramento",
        "name": "Bike Dog Brewing Co",
        "brewery_type": "micro",
        "street": "2534 Industrial Blvd Ste 110",
        "address_2": null,
        "address_3": null,
        "city": "West Sacramento",
        "state": "California",
        "county_province": null,
        "postal_code": "95691-3471",
        "country": "United States",
        "longitude": "-121.5433734",
        "latitude": "38.5660851",
        "phone": null,
        "website_url": null,
        "updated_at": "2021-10-23T02:24:55.243Z",
        "created_at": "2021-10-23T02:24:55.243Z"
    },
    {
        "id": "dingo-dog-brewing-co-carrboro",
        "name": "Dingo Dog Brewing Co",
        "brewery_type": "micro",
        "street": null,
        "address_2": null,
        "address_3": null,
        "city": "Carrboro",
        "state": "North Carolina",
        "county_province": null,
        "postal_code": "27510",
        "country": "United States",
        "longitude": null,
        "latitude": null,
        "phone": "9198859793",
        "website_url": "http://www.dingodogbrewing.com",
        "updated_at": "2021-10-23T02:24:55.243Z",
        "created_at": "2021-10-23T02:24:55.243Z"
    },
    {
        "id": "dog-rose-brewing-company-saint-augustine",
        "name": "Dog Rose Brewing Company",
        "brewery_type": "micro",
        "street": "77 Bridge St",
        "address_2": null,
        "address_3": null,
        "city": "Saint Augustine",
        "state": "Florida",
        "county_province": null,
        "postal_code": "32084-4335",
        "country": "United States",
        "longitude": "-81.31306668",
        "latitude": "29.88948146",
        "phone": "9042173355",
        "website_url": "http://www.dogrosebrewing.com",
        "updated_at": "2021-10-23T02:24:55.243Z",
        "created_at": "2021-10-23T02:24:55.243Z"
    },
    {
        "id": "dueling-dogs-brewing-company-lincoln",
        "name": "Dueling Dogs Brewing Company",
        "brewery_type": "planning",
        "street": null,
        "address_2": null,
        "address_3": null,
        "city": "Lincoln",
        "state": "California",
        "county_province": null,
        "postal_code": "95648-8503",
        "country": "United States",
        "longitude": "-121.29318",
        "latitude": "38.8915741",
        "phone": "9164348141",
        "website_url": "http://www.duelingdogsbrewing.com",
        "updated_at": "2021-10-23T02:24:55.243Z",
        "created_at": "2021-10-23T02:24:55.243Z"
    },
    {
        "id": "little-dog-brewing-co-neptune-city",
        "name": "Little Dog Brewing Co.",
        "brewery_type": "micro",
        "street": "141 Steiner Ave",
        "address_2": null,
        "address_3": null,
        "city": "Neptune City",
        "state": "New Jersey",
        "county_province": null,
        "postal_code": "07753-6500",
        "country": "United States",
        "longitude": "-74.02307257",
        "latitude": "40.20003682",
        "phone": "7323613555",
        "website_url": "http://Www.littledogbrewing.com",
        "updated_at": "2021-10-23T02:24:55.243Z",
        "created_at": "2021-10-23T02:24:55.243Z"
    },
    {
        "id": "pub-dog-brewing-company-westminster",
        "name": "Pub Dog Brewing Company",
        "brewery_type": "micro",
        "street": "1203 New Windsor Rd",
        "address_2": null,
        "address_3": null,
        "city": "Westminster",
        "state": "Maryland",
        "county_province": null,
        "postal_code": "21158-6704",
        "country": "United States",
        "longitude": "-77.05229796",
        "latitude": "39.55045197",
        "phone": "4108483993",
        "website_url": "http://www.pubdog.com",
        "updated_at": "2021-10-23T02:24:55.243Z",
        "created_at": "2021-10-23T02:24:55.243Z"
    },
    {
        "id": "river-dog-brewing-co-ridgeland",
        "name": "River Dog Brewing Co",
        "brewery_type": "micro",
        "street": "591 Browns Cove Rd Unit H",
        "address_2": null,
        "address_3": null,
        "city": "Ridgeland",
        "state": "South Carolina",
        "county_province": null,
        "postal_code": "29936-7281",
        "country": "United States",
        "longitude": null,
        "latitude": null,
        "phone": "8436452302",
        "website_url": "http://www.riverdogbrewing.com",
        "updated_at": "2021-10-23T02:24:55.243Z",
        "created_at": "2021-10-23T02:24:55.243Z"
    },
    {
        "id": "sea-dog-brewing-co-conway",
        "name": "Sea Dog Brewing Co",
        "brewery_type": "brewpub",
        "street": "1976 White Mountain Hwy #9",
        "address_2": null,
        "address_3": null,
        "city": "Conway",
        "state": "New Hampshire",
        "county_province": null,
        "postal_code": "3860",
        "country": "United States",
        "longitude": "-71.1217669",
        "latitude": "44.0333227",
        "phone": "6033560590",
        "website_url": null,
        "updated_at": "2021-10-23T02:24:55.243Z",
        "created_at": "2021-10-23T02:24:55.243Z"
    },
    {
        "id": "sleepy-dog-brewing-co-tempe",
        "name": "Sleepy Dog Brewing Co",
        "brewery_type": "micro",
        "street": "1920 E University Dr",
        "address_2": null,
        "address_3": null,
        "city": "Tempe",
        "state": "Arizona",
        "county_province": null,
        "postal_code": "85281-4608",
        "country": "United States",
        "longitude": "-111.9041833",
        "latitude": "33.422606",
        "phone": "4809675476",
        "website_url": null,
        "updated_at": "2021-10-23T02:24:55.243Z",
        "created_at": "2021-10-23T02:24:55.243Z"
    },
    {
        "id": "thirsty-dog-brewing-company-akron",
        "name": "Thirsty Dog Brewing Company",
        "brewery_type": "micro",
        "street": "529 Grant St Ste 103",
        "address_2": null,
        "address_3": null,
        "city": "Akron",
        "state": "Ohio",
        "county_province": null,
        "postal_code": "44311-1184",
        "country": "United States",
        "longitude": "-81.51788487",
        "latitude": "41.0698532",
        "phone": "3302522739",
        "website_url": "http://www.thirstydog.com",
        "updated_at": "2021-10-23T02:24:55.243Z",
        "created_at": "2021-10-23T02:24:55.243Z"
    },
    {
        "id": "trail-dog-brewing-co-novato",
        "name": "Trail Dog Brewing Co.",
        "brewery_type": "planning",
        "street": null,
        "address_2": null,
        "address_3": null,
        "city": "Novato",
        "state": "California",
        "county_province": null,
        "postal_code": "94945-3318",
        "country": "United States",
        "longitude": "-122.5681191",
        "latitude": "38.1061979",
        "phone": "4157580411",
        "website_url": "http://traildogbrewing.com",
        "updated_at": "2021-10-23T02:24:55.243Z",
        "created_at": "2021-10-23T02:24:55.243Z"
    },
    {
        "id": "triple-dog-brewing-company-havre",
        "name": "Triple Dog Brewing Company",
        "brewery_type": "micro",
        "street": "675 1st St W",
        "address_2": null,
        "address_3": null,
        "city": "Havre",
        "state": "Montana",
        "county_province": null,
        "postal_code": "59501-3415",
        "country": "United States",
        "longitude": "-109.694577",
        "latitude": "48.55500303",
        "phone": "4068798103",
        "website_url": null,
        "updated_at": "2021-10-23T02:24:55.243Z",
        "created_at": "2021-10-23T02:24:55.243Z"
    },
    {
        "id": "white-dog-brewing-boise-boise",
        "name": "White Dog Brewing Boise",
        "brewery_type": "micro",
        "street": "705 W Fulton St",
        "address_2": null,
        "address_3": null,
        "city": "Boise",
        "state": "Idaho",
        "county_province": null,
        "postal_code": "83702",
        "country": "United States",
        "longitude": "-116.2062186",
        "latitude": "43.61122761",
        "phone": "2089060609",
        "website_url": "http://www.whitedogbrewing.com",
        "updated_at": "2021-10-23T02:24:55.243Z",
        "created_at": "2021-10-23T02:24:55.243Z"
    },
    {
        "id": "white-dog-brewing-company-bozeman",
        "name": "White Dog Brewing Company",
        "brewery_type": "micro",
        "street": "121 W Main St",
        "address_2": null,
        "address_3": null,
        "city": "Bozeman",
        "state": "Montana",
        "county_province": null,
        "postal_code": "59715-4644",
        "country": "United States",
        "longitude": "-111.0393894",
        "latitude": "45.67961135",
        "phone": "4065955574",
        "website_url": "http://www.whitedogbrewing.com",
        "updated_at": "2021-10-23T02:24:55.243Z",
        "created_at": "2021-10-23T02:24:55.243Z"
    },
    {
        "id": "old-dog-alehouse-and-brewery-delaware",
        "name": "Old Dog Alehouse & Brewery",
        "brewery_type": "micro",
        "street": "13 W William St",
        "address_2": null,
        "address_3": null,
        "city": "Delaware",
        "state": "Ohio",
        "county_province": null,
        "postal_code": "43015",
        "country": "United States",
        "longitude": "-83.0998526",
        "latitude": "40.2984874",
        "phone": "740-990-4506",
        "website_url": "https://www.olddogalehouse.com/menu",
        "updated_at": "2021-10-23T02:24:55.243Z",
        "created_at": "2021-10-23T02:24:55.243Z"
    },
    {
        "id": "sea-dog-brewing-co-bangor-bangor",
        "name": "Sea Dog Brewing Co - Bangor",
        "brewery_type": "brewpub",
        "street": "26 Front St",
        "address_2": null,
        "address_3": null,
        "city": "Bangor",
        "state": "Maine",
        "county_province": null,
        "postal_code": "04401-6418",
        "country": "United States",
        "longitude": "-68.770233",
        "latitude": "44.7966948",
        "phone": "2079478009",
        "website_url": "http://www.seadogbrewing.com",
        "updated_at": "2021-10-23T02:24:55.243Z",
        "created_at": "2021-10-23T02:24:55.243Z"
    },
    {
        "id": "sea-dog-brewing-co-clearwater-clearwater",
        "name": "Sea Dog Brewing Co - Clearwater",
        "brewery_type": "micro",
        "street": "26200 US Highway 19 N",
        "address_2": null,
        "address_3": null,
        "city": "Clearwater",
        "state": "Florida",
        "county_province": null,
        "postal_code": "33761-3580",
        "country": "United States",
        "longitude": null,
        "latitude": null,
        "phone": "7274664916",
        "website_url": "http://www.seadogbrewing.com",
        "updated_at": "2021-10-23T02:24:55.243Z",
        "created_at": "2021-10-23T02:24:55.243Z"
    },
    {
        "id": "wet-dog-cafe-and-brewery-astoria",
        "name": "Wet Dog Cafe & Brewery",
        "brewery_type": "brewpub",
        "street": "990 Astor St",
        "address_2": null,
        "address_3": null,
        "city": "Astoria",
        "state": "Oregon",
        "county_province": null,
        "postal_code": "97103-4201",
        "country": "United States",
        "longitude": "-123.835821",
        "latitude": "46.190557",
        "phone": "5033256975",
        "website_url": "http://www.wetdogcafe.com",
        "updated_at": "2021-10-23T02:24:55.243Z",
        "created_at": "2021-10-23T02:24:55.243Z"
    },
    {
        "id": "dog-and-pony-alehouse-and-grill-renton",
        "name": "Dog & Pony Alehouse and Grill",
        "brewery_type": "closed",
        "street": "351 Park Ave N",
        "address_2": null,
        "address_3": null,
        "city": "Renton",
        "state": "Washington",
        "county_province": null,
        "postal_code": "98057-5716",
        "country": "United States",
        "longitude": "-122.2023129",
        "latitude": "47.48758261",
        "phone": "4252548080",
        "website_url": "http://www.thedogandpony.com",
        "updated_at": "2021-10-23T02:24:55.243Z",
        "created_at": "2021-10-23T02:24:55.243Z"
    },
    {
        "id": "hair-of-the-dog-brewing-co-portland",
        "name": "Hair of the Dog Brewing Co",
        "brewery_type": "brewpub",
        "street": "61 SE Yamhill St",
        "address_2": null,
        "address_3": null,
        "city": "Portland",
        "state": "Oregon",
        "county_province": null,
        "postal_code": "97214-2134",
        "country": "United States",
        "longitude": "-122.6655236",
        "latitude": "45.5160413",
        "phone": "5032326585",
        "website_url": "http://www.hairofthedog.com",
        "updated_at": "2021-10-23T02:24:55.243Z",
        "created_at": "2021-10-23T02:24:55.243Z"
    },
    {
        "id": "sea-dog-brewing-co-s-portland-s-portland",
        "name": "Sea Dog Brewing Co - S. Portland",
        "brewery_type": "brewpub",
        "street": "125 Western Ave",
        "address_2": null,
        "address_3": null,
        "city": "S Portland",
        "state": "Maine",
        "county_province": null,
        "postal_code": "04106-2413",
        "country": "United States",
        "longitude": "-70.31903067",
        "latitude": "43.63519195",
        "phone": "2078717000",
        "website_url": "http://www.seadogbrewing.com",
        "updated_at": "2021-10-23T02:24:55.243Z",
        "created_at": "2021-10-23T02:24:55.243Z"
    },
    {
        "id": "foy-enterprises-llc-dba-dog-river-brewery-barre",
        "name": "Foy Enterprises LLC DBA Dog River Brewery",
        "brewery_type": "micro",
        "street": "1400 US Route 302 Ste 4",
        "address_2": null,
        "address_3": null,
        "city": "Barre",
        "state": "Vermont",
        "county_province": null,
        "postal_code": "05641-2320",
        "country": "United States",
        "longitude": null,
        "latitude": null,
        "phone": "8025054053",
        "website_url": null,
        "updated_at": "2021-10-23T02:24:55.243Z",
        "created_at": "2021-10-23T02:24:55.243Z"
    },
    {
        "id": "dodge-city-brewing-dodge-city",
        "name": "Dodge City Brewing",
        "brewery_type": "brewpub",
        "street": "701 3rd Ave",
        "address_2": null,
        "address_3": null,
        "city": "Dodge City",
        "state": "Kansas",
        "county_province": null,
        "postal_code": "67801-4336",
        "country": "United States",
        "longitude": "-100.020307",
        "latitude": "37.754632",
        "phone": "6203713999",
        "website_url": "http://www.dodgecitybrewing.com",
        "updated_at": "2021-10-23T02:24:55.243Z",
        "created_at": "2021-10-23T02:24:55.243Z"
    },
    {
        "id": "shiny-top-brewing-fort-dodge",
        "name": "Shiny Top Brewing",
        "brewery_type": "micro",
        "street": "520 Central Ave",
        "address_2": null,
        "address_3": null,
        "city": "Fort Dodge",
        "state": "Iowa",
        "county_province": null,
        "postal_code": "50501-3810",
        "country": "United States",
        "longitude": "-94.19057896",
        "latitude": "42.50474204",
        "phone": "5153028055",
        "website_url": "http://www.shinytopbrewing.com",
        "updated_at": "2021-10-23T02:24:55.243Z",
        "created_at": "2021-10-23T02:24:55.243Z"
    },
    {
        "id": "bog-brewing-company-saint-augustine",
        "name": "Bog Brewing Company",
        "brewery_type": "micro",
        "street": "218 W King St",
        "address_2": null,
        "address_3": null,
        "city": "Saint Augustine",
        "state": "Florida",
        "county_province": null,
        "postal_code": "32084-4144",
        "country": "United States",
        "longitude": "-81.3267969",
        "latitude": "29.8908994",
        "phone": "9046793146",
        "website_url": "http://www.bogbrewery.com",
        "updated_at": "2021-10-23T02:24:55.243Z",
        "created_at": "2021-10-23T02:24:55.243Z"
    },
    {
        "id": "bog-iron-brewing-co-norton",
        "name": "Bog Iron Brewing Co",
        "brewery_type": "micro",
        "street": "33 W Main St",
        "address_2": null,
        "address_3": null,
        "city": "Norton",
        "state": "Massachusetts",
        "county_province": null,
        "postal_code": "02766-2711",
        "country": "United States",
        "longitude": "-71.18849942",
        "latitude": "41.96658468",
        "phone": "5089520555",
        "website_url": null,
        "updated_at": "2021-10-23T02:24:55.243Z",
        "created_at": "2021-10-23T02:24:55.243Z"
    },
    {
        "id": "bog-turtle-brewery-llc-oxford",
        "name": "Bog Turtle Brewery, LLC",
        "brewery_type": "micro",
        "street": "14 S 3rd St Ste 1",
        "address_2": null,
        "address_3": null,
        "city": "Oxford",
        "state": "Pennsylvania",
        "county_province": null,
        "postal_code": "19363-1601",
        "country": "United States",
        "longitude": null,
        "latitude": null,
        "phone": "4847580416",
        "website_url": "http://www.bogturtlebrewery.com",
        "updated_at": "2021-10-23T02:24:55.243Z",
        "created_at": "2021-10-23T02:24:55.243Z"
    },
    {
        "id": "doc-gs-brewing-company-du-bois",
        "name": "Doc G's Brewing Company",
        "brewery_type": "brewpub",
        "street": "208 W Long Ave",
        "address_2": null,
        "address_3": null,
        "city": "Du Bois",
        "state": "Pennsylvania",
        "county_province": null,
        "postal_code": "15801-2106",
        "country": "United States",
        "longitude": null,
        "latitude": null,
        "phone": "8142997938",
        "website_url": null,
        "updated_at": "2021-10-23T02:24:55.243Z",
        "created_at": "2021-10-23T02:24:55.243Z"
    },
    {
        "id": "two-docs-brewing-co-lubbock",
        "name": "Two Docs Brewing Co.",
        "brewery_type": "planning",
        "street": null,
        "address_2": null,
        "address_3": null,
        "city": "Lubbock",
        "state": "Texas",
        "county_province": null,
        "postal_code": "79401",
        "country": "United States",
        "longitude": null,
        "latitude": null,
        "phone": null,
        "website_url": "http://twodocsbrewing.com",
        "updated_at": "2021-10-23T02:24:55.243Z",
        "created_at": "2021-10-23T02:24:55.243Z"
    },
    {
        "id": "grande-mere-inn-cranberry-bog-bar-stevensville",
        "name": "Grande Mere Inn / Cranberry Bog Bar",
        "brewery_type": "brewpub",
        "street": "5800 Red Arrow Hwy",
        "address_2": null,
        "address_3": null,
        "city": "Stevensville",
        "state": "Michigan",
        "county_province": null,
        "postal_code": "49127-1118",
        "country": "United States",
        "longitude": "-86.5287857",
        "latitude": "42.01274111",
        "phone": "2694293591",
        "website_url": "http://www.grandemereinn.com",
        "updated_at": "2021-10-23T02:24:55.243Z",
        "created_at": "2021-10-23T02:24:55.243Z"
    }
]